{"103106": {"lat": 43.6469636, "lng": -79.37713579999999, "address": "2 Yonge St, Toronto, ON M5J, Canada", "place_id": "ChIJlWAfTizL1IkRy5SBCfZP6pg", "types": ["street_address"], "accuracy": "ROOFTOP", "search_term": "2 yonge street ontario toronto canada", "original_title": "Ceiling over tunnel and pouring of cement, 2 Yonge Street and Trinity Square", "technique": ["exact_address", "2", "yonge street"]}, "103769": {"original_title": "Alexander Muir Memorial Gardens", "lat": 43.7212741, "lng": -79.4004774, "search_term": "alexander muir memorial gardens", "technique": ["POI", "alexander muir memorial gardens"]}, "103926": {"original_title": "King Station", "lat": 43.6485227, "lng": -79.3777728, "search_term": "king station", "technique": ["POI", "king station"]}, "104078": {"original_title": "Woodbine Racetrack", "lat": 43.715158, "lng": -79.6041288, "search_term": "woodbine racetrack", "technique": ["POI", "woodbine racetrack"]}, "124845": {"lat": 43.697754, "lng": -79.3969795, "address": "William McBrien Building, 1900 Yonge St, Toronto, ON M4S 1Z2, Canada", "place_id": "ChIJq0g7VEczK4gR91iUTzaZD3o", "types": ["premise"], "accuracy": "ROOFTOP", "search_term": "1900 yonge street ontario toronto canada", "original_title": "The McBrien Building : TTC head office, 1900 Yonge Street", "technique": ["exact_address", "1900", "yonge street"]}, "126869": {"lat": 43.67555340000001, "lng": -79.4003357, "address": "186 Bedford Rd, Toronto, ON M5R 2K9, Canada", "place_id": "ChIJ8yzHnqE0K4gRPlnBDLZyVnw", "types": ["street_address"], "accuracy": "ROOFTOP", "search_term": "186 bedford road ontario toronto canada", "original_title": "House at 186 Bedford Road", "technique": ["exact_address", "186", "bedford road"]}, "126950": {"original_title": "Bathurst Station", "lat": 43.6657302, "lng": -79.4116188, "search_term": "bathurst station", "technique": ["POI", "bathurst station"]}, "126972": {"lat": 43.697754, "lng": -79.3969795, "address": "William McBrien Building, 1900 Yonge St, Toronto, ON M4S 1Z2, Canada", "place_id": "ChIJq0g7VEczK4gR91iUTzaZD3o", "types": ["premise"], "accuracy": "ROOFTOP", "search_term": "1900 yonge street ontario toronto canada", "original_title": "View from Paul Baker's office in the McBrien Building : 1900 Yonge Street", "technique": ["exact_address", "1900", "yonge street"]}, "127339": {"original_title": "Metro Toronto Zoo", "lat": 43.8198517, "lng": -79.1853386, "search_term": "metro toronto zoo", "technique": ["POI", "metro toronto zoo"]}, "127341": {"original_title": "Toronto Island", "lat": 43.6266572, "lng": -79.3946772, "search_term": "toronto island", "technique": ["POI", "toronto island"]}, "127344": {"original_title": "Ontario Place", "lat": 43.6286314, "lng": -79.4157281, "search_term": "ontario place", "technique": ["POI", "ontario place"]}, "127347": {"original_title": "St. Lawrence Market", "lat": 43.6486929, "lng": -79.371571, "search_term": "st. lawrence market", "technique": ["POI", "st. lawrence market"]}, "127348": {"original_title": "CN Tower", "lat": 43.6425012, "lng": -79.3871153, "search_term": "cn tower", "technique": ["POI", "cn tower"]}, "207203": {"lat": 43.6584274, "lng": -79.47907719999999, "address": "463 Runnymede Rd, Toronto, ON M6S 2Z2, Canada", "place_id": "ChIJk_Q-1Jo2K4gRvdPUbPouIuE", "types": ["street_address"], "accuracy": "ROOFTOP", "search_term": "463 runnymede road ontario toronto canada", "original_title": "Firehall No. 31, 463 Runnymede Road", "technique": ["exact_address", "463", "runnymede road"]}, "306937": {"lat": 43.6610337, "lng": -79.35057710000001, "address": "179 Broadview Ave, Toronto, ON M4M 2G5, Canada", "place_id": "ChIJgcl9l27L1IkRNpRyUWuqQPQ", "types": ["street_address"], "accuracy": "ROOFTOP", "search_term": "179 broadview avenue ontario toronto canada", "original_title": "Housing - 179 Broadview Avenue", "technique": ["exact_address", "179", "broadview avenue"]}, "307115": {"original_title": "Royal Ontario Museum", "lat": 43.6677062, "lng": -79.3946826, "search_term": "royal ontario museum", "technique": ["POI", "royal ontario museum"]}, "322032": {"original_title": "Ontario Place", "lat": 43.6286314, "lng": -79.4157281, "search_term": "ontario place", "technique": ["POI", "ontario place"]}, "322151": {"original_title": "Ontario Place", "lat": 43.6286314, "lng": -79.4157281, "search_term": "ontario place", "technique": ["POI", "ontario place"]}, "322152": {"original_title": "Exhibition Place", "lat": 43.633751, "lng": -79.4192546, "search_term": "exhibition place", "technique": ["POI", "exhibition place"]}, "322170": {"original_title": "Toronto Island", "lat": 43.6266572, "lng": -79.3946772, "search_term": "toronto island", "technique": ["POI", "toronto island"]}, "322192": {"original_title": "Exhibition Place", "lat": 43.633751, "lng": -79.4192546, "search_term": "exhibition place", "technique": ["POI", "exhibition place"]}, "322329": {"lat": 43.6435205, "lng": -79.3790818, "address": "40 Bay St, Toronto, ON M5J, Canada", "place_id": "ChIJMzdgYivL1IkRvsBJXV7I76E", "types": ["street_address"], "accuracy": "ROOFTOP", "search_term": "40 bay st. ontario toronto canada", "original_title": "Buildings - Raptors and 40 Bay St.", "technique": ["exact_address", "40", "bay st."]}, "322507": {"original_title": "Allan Gardens", "lat": 43.6619387, "lng": -79.3743996, "search_term": "allan gardens", "technique": ["POI", "allan gardens"]}, "324851": {"original_title": "Nathan Phillips Square", "lat": 43.6524561, "lng": -79.3835543, "search_term": "nathan phillips square", "technique": ["POI", "nathan phillips square"]}, "325782": {"lat": 43.7846634, "lng": -79.4164734, "address": "5795 Turnberry Ct, North York, ON M2M 3T9, Canada", "place_id": "ChIJIaBEhA8tK4gRr0KVeNKqZ98", "types": ["street_address"], "accuracy": "ROOFTOP", "search_term": "5795 turnberry court ontario toronto canada", "original_title": "5795 Turnberry Court and Martin Goodman Trail at Ontario Place", "technique": ["exact_address", "5795", "turnberry court"]}, "326641": {"lat": 43.6500275, "lng": -79.3815324, "address": "76 Adelaide St W, Toronto, ON M5H 4A6, Canada", "place_id": "ChIJZ-ayRc00K4gRWuxzaQGPs2U", "types": ["street_address"], "accuracy": "ROOFTOP", "search_term": "76 adelaide street west ontario toronto canada", "original_title": "Photos of Mr. and Mrs. O'Rourke taken at 76 Adelaide Street West", "technique": ["exact_address", "76", "adelaide street west"]}, "341007": {"lat": 43.7217394, "lng": -79.4172976, "address": "321 Lawrence Ave W, North York, ON M5M 1B5, Canada", "place_id": "ChIJ4fS0UPwyK4gRLrIkni-SAn8", "types": ["street_address"], "accuracy": "ROOFTOP", "search_term": "321 lawrence avenue west ontario toronto canada", "original_title": "315-321 Lawrence Avenue West", "technique": ["exact_address", "321", "lawrence avenue west"]}, "341009": {"lat": 43.64809, "lng": -79.5291367, "address": "4933 Dundas St W, Etobicoke, ON M9A 1B6, Canada", "place_id": "ChIJLxUx0qU3K4gRidBgREz1QBU", "types": ["street_address"], "accuracy": "ROOFTOP", "search_term": "4933 dundas street west ontario toronto canada", "original_title": "Butler Funeral Chapel, 4933 Dundas Street West", "technique": ["exact_address", "4933", "dundas street west"]}, "347374": {"lat": 43.64951480000001, "lng": -79.3995463, "address": "96 Vanauley Walk, Toronto, ON M5T 2H7, Canada", "place_id": "ChIJU3sM59w0K4gROVOazsRR5Pc", "types": ["street_address"], "accuracy": "ROOFTOP", "search_term": "96 vanauley court ontario toronto canada", "original_title": "92-96 Vanauley Court", "technique": ["exact_address", "96", "vanauley court"]}, "347377": {"original_title": "Oriole Yard", "lat": 43.7680227, "lng": -79.3658632, "search_term": "oriole yard", "technique": ["POI", "oriole yard"]}, "347381": {"lat": 43.6763155, "lng": -79.3173611, "address": "1680 Gerrard St E, Toronto, ON M4L 2B2, Canada", "place_id": "ChIJL5IF9nPM1IkRVmvyMFqss0o", "types": ["street_address"], "accuracy": "ROOFTOP", "search_term": "1680 gerrard street ontario toronto canada", "original_title": "Coxwell Ravine, 1680 Gerrard Street", "technique": ["exact_address", "1680", "gerrard street"]}, "348715": {"original_title": "Old City Hall", "lat": 43.6525218, "lng": -79.381976, "search_term": "old city hall", "technique": ["POI", "old city hall"]}, "349015": {"lat": 43.644514, "lng": -79.5251407, "address": "3326 Bloor St W, Etobicoke, ON M8X, Canada", "place_id": "ChIJBfs0wK83K4gRNOAvedu48fk", "types": ["street_address"], "accuracy": "ROOFTOP", "search_term": "3326 bloor street west ontario toronto canada", "original_title": "3326 Bloor Street West", "technique": ["exact_address", "3326", "bloor street west"]}, "349077": {"lat": 43.6870394, "lng": -79.30808809999999, "address": "2300 Danforth Ave, Toronto, ON M4C, Canada", "place_id": "ChIJP7iVzBXM1IkR1Ac9Lc164ZI", "types": ["premise"], "accuracy": "ROOFTOP", "search_term": "2300 danforth avenue ontario toronto canada", "original_title": "2300 Danforth Avenue", "technique": ["exact_address", "2300", "danforth avenue"]}, "349389": {"lat": 43.6525457, "lng": -79.400318, "address": "574 Dundas St W, Toronto, ON M5T 1H5, Canada", "place_id": "ChIJWV5r48I0K4gR4VUUe9GLbV4", "types": ["street_address"], "accuracy": "ROOFTOP", "search_term": "574 dundas street ontario toronto canada", "original_title": "568-574 Dundas Street", "technique": ["exact_address", "574", "dundas street"]}, "349408": {"lat": 43.6521009, "lng": -79.4002618, "address": "561 Dundas St W, Toronto, ON M5T 1H4, Canada", "place_id": "ChIJybuN4MI0K4gRAAW5dX2Gw7s", "types": ["street_address"], "accuracy": "ROOFTOP", "search_term": "561 dundas street west ontario toronto canada", "original_title": "557-561 Dundas Street West", "technique": ["exact_address", "561", "dundas street west"]}, "349415": {"lat": 43.692707, "lng": -79.2926799, "address": "82 Eldon Ave, East York, ON M4C 5G3, Canada", "place_id": "ChIJ9_Jt1CDM1IkRiFkIHGjB11Q", "types": ["premise"], "accuracy": "ROOFTOP", "search_term": "82 eldon avenue ontario toronto canada", "original_title": "78-82 Eldon Avenue", "technique": ["exact_address", "82", "eldon avenue"]}, "349475": {"lat": 43.7079034, "lng": -79.2736444, "address": "72 Huddleston Ct, Scarborough, ON M1L 4L2, Canada", "place_id": "ChIJYVdl1GPO1IkRzmoK48pij2Y", "types": ["premise"], "accuracy": "ROOFTOP", "search_term": "72 huddleston court ontario toronto canada", "original_title": "72 Huddleston Court", "technique": ["exact_address", "72", "huddleston court"]}, "37863": {"lat": 43.7129272, "lng": -79.3816897, "address": "351 Broadway Ave, North York, ON M4P 1W8, Canada", "place_id": "ChIJVczDISszK4gRDRuVMfVWlcc", "types": ["street_address"], "accuracy": "ROOFTOP", "search_term": "351 broadway avenue ontario toronto canada", "original_title": "351 Broadway Avenue (sidewalk)", "technique": ["exact_address", "351", "broadway avenue"]}, "38220": {"lat": 43.7377955, "lng": -79.3355523, "address": "28 Deepwood Crescent, Toronto, ON M3C, Canada", "place_id": "ChIJwfBn13fN1IkRCwPb5eoAOiU", "types": ["street_address"], "accuracy": "ROOFTOP", "search_term": "28 deepwood crescent ontario toronto canada", "original_title": "28 Deepwood Crescent", "technique": ["exact_address", "28", "deepwood crescent"]}, "38794": {"lat": 43.73448399999999, "lng": -79.421262, "address": "39 Kelso Ave, North York, ON M5M 4C4, Canada", "place_id": "ChIJqdinP_QyK4gRpmnkosFIpwI", "types": ["premise"], "accuracy": "ROOFTOP", "search_term": "39 kelso street ontario toronto canada", "original_title": "37, 39 Kelso Street", "technique": ["exact_address", "39", "kelso street"]}, "38798": {"original_title": "Lawrence Heights Community Centre", "lat": 43.7180907, "lng": -79.4421096, "search_term": "lawrence heights community centre", "technique": ["POI", "lawrence heights community centre"]}, "39336": {"lat": 43.76619729999999, "lng": -79.41286029999999, "address": "5000 Yonge St, North York, ON M2N 7E9, Canada", "place_id": "ChIJA5rykm8tK4gRPdVsz78e95A", "types": ["street_address"], "accuracy": "ROOFTOP", "search_term": "5000 yonge street ontario toronto canada", "original_title": "5000 Yonge Street : North York Municipal Buildings (1956-1978) at night.", "technique": ["exact_address", "5000", "yonge street"]}, "39337": {"lat": 43.76619729999999, "lng": -79.41286029999999, "address": "5000 Yonge St, North York, ON M2N 7E9, Canada", "place_id": "ChIJA5rykm8tK4gRPdVsz78e95A", "types": ["street_address"], "accuracy": "ROOFTOP", "search_term": "5000 yonge street ontario toronto canada", "original_title": "5000 Yonge Street", "technique": ["exact_address", "5000", "yonge street"]}, "39338": {"original_title": "North York General Hospital", "lat": 43.7694642, "lng": -79.362566, "search_term": "north york general hospital", "technique": ["POI", "north york general hospital"]}, "43913": {"original_title": "Black Creek Pioneer Village", "lat": 43.7745365, "lng": -79.5179164, "search_term": "black creek pioneer village", "technique": ["POI", "black creek pioneer village"]}, "44475": {"lat": 43.7275594, "lng": -79.42019549999999, "address": "408 Fairlawn Ave, North York, ON M5M 1T8, Canada", "place_id": "ChIJrbWh8_kyK4gRGC3uc3Zga0w", "types": ["street_address"], "accuracy": "ROOFTOP", "search_term": "408 fairlawn ave ontario toronto canada", "original_title": "Works Committee : 408 Fairlawn Avenue.", "technique": ["exact_address", "408", "fairlawn ave"]}, "456231": {"original_title": "Old City Hall", "lat": 43.6525218, "lng": -79.381976, "search_term": "old city hall", "technique": ["POI", "old city hall"]}, "456233": {"original_title": "Osgoode Hall", "lat": 43.6521026, "lng": -79.3855358, "search_term": "osgoode hall", "technique": ["POI", "osgoode hall"]}, "456235": {"original_title": "St. Lawrence Hall", "lat": 43.6501667, "lng": -79.3721787, "search_term": "st. lawrence hall", "technique": ["POI", "st. lawrence hall"]}, "456243": {"original_title": "Colborne Lodge", "lat": 43.6403622, "lng": -79.459996, "search_term": "colborne lodge", "technique": ["POI", "colborne lodge"]}, "456244": {"lat": 43.6556625, "lng": -79.3785632, "address": "82 Bond St, Toronto, ON M5B 1X2, Canada", "place_id": "ChIJffoe5TTL1IkR6UGuirF0gHc", "types": ["premise"], "accuracy": "ROOFTOP", "search_term": "82 bond street ontario toronto canada", "original_title": "82 Bond Street", "technique": ["exact_address", "82", "bond street"]}, "456246": {"original_title": "Campbell House", "lat": 43.6510527, "lng": -79.387322, "search_term": "campbell house", "technique": ["POI", "campbell house"]}, "456331": {"original_title": "Confederation Life Building", "lat": 43.6520357, "lng": -79.3784349, "search_term": "confederation life building", "technique": ["POI", "confederation life building"]}, "456379": {"original_title": "Royal Alexandra Theatre", "lat": 43.6473891, "lng": -79.3875825, "search_term": "royal alexandra theatre", "technique": ["POI", "royal alexandra theatre"]}, "456411": {"original_title": "CN Tower", "lat": 43.6425012, "lng": -79.3871153, "search_term": "cn tower", "technique": ["POI", "cn tower"]}, "456420": {"original_title": "King Edward Hotel", "lat": 43.6491889, "lng": -79.3760624, "search_term": "king edward hotel", "technique": ["POI", "king edward hotel"]}, "457150": {"original_title": "Toronto Island", "lat": 43.6266572, "lng": -79.3946772, "search_term": "toronto island", "technique": ["POI", "toronto island"]}, "457153": {"original_title": "Mount Pleasant Cemetery", "lat": 43.6986034, "lng": -79.3734523, "search_term": "mount pleasant cemetery", "technique": ["POI", "mount pleasant cemetery"]}, "457474": {"original_title": "Ontario Place", "lat": 43.6286314, "lng": -79.4157281, "search_term": "ontario place", "technique": ["POI", "ontario place"]}}